[{
  "_id": {
    "$oid": "645d1dd5527357e9f15ee04d"
  },
  "name": "Dunkin",
  "location": {
    "type": "Point",
    "coordinates": [
      73.7033602,
      40.752222
    ]
  }
},{
  "_id": {
    "$oid": "645d2096527357e9f15ee04e"
  },
  "name": "Venom",
  "location": {
    "type": "Point",
    "coordinates": [
      73.7217817,
      40.7253564
    ]
  }
},{
  "_id": {
    "$oid": "645d209e527357e9f15ee04f"
  },
  "name": "Pace University",
  "location": {
    "type": "Point",
    "coordinates": [
      74.0051758,
      40.7112562
    ]
  }
},{
  "_id": {
    "$oid": "645d20ab527357e9f15ee050"
  },
  "name": "Journal square",
  "location": {
    "type": "Point",
    "coordinates": [
      74.0631544,
      40.7345715
    ]
  }
},{
  "_id": {
    "$oid": "645d20b4527357e9f15ee051"
  },
  "name": "Time square",
  "location": {
    "type": "Point",
    "coordinates": [
      73.9881175,
      40.7579747
    ]
  }
},{
  "_id": {
    "$oid": "645d20bc527357e9f15ee052"
  },
  "name": "Long Island University",
  "location": {
    "type": "Point",
    "coordinates": [
      73.9992087,
      40.8700085
    ]
  }
}]